{"nhits": 994826, "parameters": {"dataset": ["nox_wide"], "timezone": "UTC", "rows": 10, "format": "json", "facet": ["date_time", "location"]}, "records": [{"datasetid": "nox_wide", "recordid": "defad58403b7c1529937661a84cd82483f282816", "fields": {"datestart": "2003-01-01T00:00:00+00:00", "date_time": "2008-06-06T02:00:00+00:00", "no": 9.0, "geo_point_2d": [51.4278621788, -2.56374225514], "siteid": 270, "location": "Wells Road A37 Airport Road Junction", "nox": 33.75, "no2": 19.75}, "geometry": {"type": "Point", "coordinates": [-2.56374225514, 51.4278621788]}, "record_timestamp": "2019-03-13T12:12:45+00:00"}, {"datasetid": "nox_wide", "recordid": "1bde6aead747439295a43ac889f6b4effe70cbd7", "fields": {"date_time": "2008-06-06T02:00:00+00:00", "no": 4.97, "geo_point_2d": [51.4899919005, -2.68878215378], "siteid": 271, "location": "Trailer Portway P&R", "nox": 19.79, "no2": 12.18}, "geometry": {"type": "Point", "coordinates": [-2.68878215378, 51.4899919005]}, "record_timestamp": "2019-03-13T12:12:45+00:00"}, {"datasetid": "nox_wide", "recordid": "0c59d2b0c036446f27566e4a009a05e17b2f1276", "fields": {"datestart": "2005-11-01T00:00:00+00:00", "date_time": "2008-06-06T02:00:00+00:00", "no": 4.0, "geo_point_2d": [51.4425356217, -2.57137728402], "nox": 15.5, "siteid": 447, "location": "Bath Road", "dateend": "2013-01-01T00:00:00+00:00", "no2": 11.75}, "geometry": {"type": "Point", "coordinates": [-2.57137728402, 51.4425356217]}, "record_timestamp": "2019-03-13T12:12:45+00:00"}, {"datasetid": "nox_wide", "recordid": "7a3844a2ea1adf6ec5d4fb7c3bbc1a1c0d374255", "fields": {"datestart": "2005-11-01T00:00:00+00:00", "date_time": "2008-06-06T03:00:00+00:00", "no": 1.5, "geo_point_2d": [51.4425356217, -2.57137728402], "nox": 13.25, "siteid": 447, "location": "Bath Road", "dateend": "2013-01-01T00:00:00+00:00", "no2": 11.75}, "geometry": {"type": "Point", "coordinates": [-2.57137728402, 51.4425356217]}, "record_timestamp": "2019-03-13T12:12:45+00:00"}, {"datasetid": "nox_wide", "recordid": "b1ff93fdf8b3b412a9a926e67940e77026a2a78a", "fields": {"datestart": "2005-11-01T00:00:00+00:00", "date_time": "2008-06-06T04:00:00+00:00", "no": 8.5, "geo_point_2d": [51.4425356217, -2.57137728402], "nox": 25.5, "siteid": 447, "location": "Bath Road", "dateend": "2013-01-01T00:00:00+00:00", "no2": 17.25}, "geometry": {"type": "Point", "coordinates": [-2.57137728402, 51.4425356217]}, "record_timestamp": "2019-03-13T12:12:45+00:00"}, {"datasetid": "nox_wide", "recordid": "767648f3e0fbad8c272a6b3a4a16fe0e6b4c87d1", "fields": {"datestart": "2005-01-01T00:00:00+00:00", "date_time": "2008-06-06T05:00:00+00:00", "no": 61.5, "geo_point_2d": [51.460672491, -2.58225494694], "nox": 157.25, "siteid": 375, "location": "Newfoundland Road Police Station", "dateend": "2016-01-01T00:00:00+00:00", "no2": 63.25}, "geometry": {"type": "Point", "coordinates": [-2.58225494694, 51.460672491]}, "record_timestamp": "2019-03-13T12:12:45+00:00"}, {"datasetid": "nox_wide", "recordid": "194a80290b97f108e2691ca322af6e077a85c1a3", "fields": {"datestart": "2003-01-01T00:00:00+00:00", "date_time": "2008-06-06T06:00:00+00:00", "no": 183.5, "geo_point_2d": [51.4554315612, -2.59626425504], "nox": 381.0, "siteid": 206, "location": "Rupert Street", "dateend": "2016-01-01T00:00:00+00:00", "no2": 99.5}, "geometry": {"type": "Point", "coordinates": [-2.59626425504, 51.4554315612]}, "record_timestamp": "2019-03-13T12:12:45+00:00"}, {"datasetid": "nox_wide", "recordid": "dc7387247cae35afabba53b9ecf60352083dfc61", "fields": {"datestart": "2001-01-01T00:00:00+00:00", "date_time": "2008-06-06T07:00:00+00:00", "siteid": 203, "geo_point_2d": [51.4417454925, -2.55995735828], "location": "Brislington Depot"}, "geometry": {"type": "Point", "coordinates": [-2.55995735828, 51.4417454925]}, "record_timestamp": "2019-03-13T12:12:45+00:00"}, {"datasetid": "nox_wide", "recordid": "6b9f9a5de44fa1d7942d748d41c1d0505f22f709", "fields": {"datestart": "2003-01-01T00:00:00+00:00", "date_time": "2008-06-06T08:00:00+00:00", "no": 75.5, "geo_point_2d": [51.4278621788, -2.56374225514], "siteid": 270, "location": "Wells Road A37 Airport Road Junction", "nox": 184.5, "no2": 68.5}, "geometry": {"type": "Point", "coordinates": [-2.56374225514, 51.4278621788]}, "record_timestamp": "2019-03-13T12:12:45+00:00"}, {"datasetid": "nox_wide", "recordid": "961e35eeefbaf5c54370181fa93c0a1409e26fe6", "fields": {"date_time": "2008-06-06T09:00:00+00:00", "no": 12.56, "geo_point_2d": [51.4899919005, -2.68878215378], "siteid": 271, "location": "Trailer Portway P&R", "nox": 43.11, "no2": 23.84}, "geometry": {"type": "Point", "coordinates": [-2.68878215378, 51.4899919005]}, "record_timestamp": "2019-03-13T12:12:45+00:00"}], "facet_groups": [{"name": "date_time", "facets": [{"name": "1998", "path": "1998", "count": 8543, "state": "displayed"}, {"name": "1999", "path": "1999", "count": 8760, "state": "displayed"}, {"name": "2000", "path": "2000", "count": 8161, "state": "displayed"}, {"name": "2001", "path": "2001", "count": 8757, "state": "displayed"}, {"name": "2002", "path": "2002", "count": 17495, "state": "displayed"}, {"name": "2003", "path": "2003", "count": 38054, "state": "displayed"}, {"name": "2004", "path": "2004", "count": 47051, "state": "displayed"}, {"name": "2005", "path": "2005", "count": 62854, "state": "displayed"}, {"name": "2006", "path": "2006", "count": 70080, "state": "displayed"}, {"name": "2007", "path": "2007", "count": 70080, "state": "displayed"}, {"name": "2008", "path": "2008", "count": 74822, "state": "displayed"}, {"name": "2009", "path": "2009", "count": 78547, "state": "displayed"}, {"name": "2010", "path": "2010", "count": 78840, "state": "displayed"}, {"name": "2011", "path": "2011", "count": 70081, "state": "displayed"}, {"name": "2012", "path": "2012", "count": 70272, "state": "displayed"}, {"name": "2013", "path": "2013", "count": 52734, "state": "displayed"}, {"name": "2014", "path": "2014", "count": 52560, "state": "displayed"}, {"name": "2015", "path": "2015", "count": 52560, "state": "displayed"}, {"name": "2016", "path": "2016", "count": 35136, "state": "displayed"}, {"name": "2017", "path": "2017", "count": 35040, "state": "displayed"}, {"name": "2018", "path": "2018", "count": 42144, "state": "displayed"}, {"name": "2019", "path": "2019", "count": 12255, "state": "displayed"}]}, {"name": "location", "facets": [{"name": "Brislington Depot", "path": "Brislington Depot", "count": 160273, "state": "displayed"}, {"name": "Parson Street School", "path": "Parson Street School", "count": 151490, "state": "displayed"}, {"name": "Wells Road A37 Airport Road Junction", "path": "Wells Road A37 Airport Road Junction", "count": 139264, "state": "displayed"}, {"name": "Rupert Street", "path": "Rupert Street", "count": 113951, "state": "displayed"}, {"name": "Newfoundland Road Police Station", "path": "Newfoundland Road Police Station", "count": 96407, "state": "displayed"}, {"name": "Fishponds Road", "path": "Fishponds Road", "count": 88299, "state": "displayed"}, {"name": "Shiner's Garage", "path": "Shiner's Garage", "count": 74787, "state": "displayed"}, {"name": "Bath Road", "path": "Bath Road", "count": 62990, "state": "displayed"}, {"name": "Trailer Portway P&R", "path": "Trailer Portway P&R", "count": 43824, "state": "displayed"}, {"name": "IKEA M32", "path": "IKEA M32", "count": 25464, "state": "displayed"}, {"name": "Cheltenham Road \\ Station Road", "path": "Cheltenham Road \\ Station Road", "count": 22071, "state": "displayed"}, {"name": "Colston Avenue", "path": "Colston Avenue", "count": 9560, "state": "displayed"}, {"name": "Temple Meads Station", "path": "Temple Meads Station", "count": 6446, "state": "displayed"}]}]}